City ID,City,Country,Lat,Lng,Max Temp,Humidity,Cloudiness,Wind Speed,Current Description
0,Tiksi,RU,71.6872,128.8694,-27.69,100,100,0.67,overcast clouds
1,Mataura,NZ,-46.1927,168.8643,62.49,71,9,1.34,clear sky
2,Hilo,US,19.7297,-155.09,78.01,73,0,5.99,clear sky
3,Bambous Virieux,MU,-20.3428,57.7575,80.85,83,75,18.41,moderate rain
4,Hamilton,US,39.1834,-84.5333,48.25,73,75,3.44,moderate rain
5,Ushuaia,AR,-54.8,-68.3,62.26,51,75,17.27,broken clouds
6,Nortelandia,BR,-14.4547,-56.8028,89.76,49,95,3.0,overcast clouds
7,Rikitea,PF,-23.1203,-134.9692,77.63,71,55,3.42,broken clouds
8,Seoul,KR,37.5683,126.9778,24.24,81,0,1.14,clear sky
9,Gushikawa,JP,26.3544,127.8686,60.03,63,100,4.61,overcast clouds
10,Te Anau,NZ,-45.4167,167.7167,60.24,71,43,2.53,scattered clouds
11,Ambon,ID,-3.6954,128.1814,78.24,14,20,3.44,light rain
12,Cherskiy,RU,68.75,161.3,-38.43,97,100,3.13,overcast clouds
13,Nouadhibou,MR,20.931,-17.0347,67.98,68,85,16.11,overcast clouds
14,Kolokani,ML,13.5728,-8.0339,75.61,12,0,8.81,clear sky
15,Punta Arenas,CL,-53.15,-70.9167,69.91,46,0,24.16,clear sky
16,Eichenzell,DE,50.4934,9.6961,31.71,82,40,4.09,scattered clouds
17,Abu Samrah,SY,35.3029,37.1841,50.38,81,3,4.99,clear sky
18,Sonoita,MX,31.85,-112.8333,55.54,35,95,4.32,overcast clouds
19,Bluff,NZ,-46.6,168.3333,58.14,83,33,4.88,scattered clouds
20,Hithadhoo,MV,-0.6,73.0833,81.52,72,11,8.37,few clouds
21,Puerto Ayora,EC,-0.7393,-90.3518,84.16,89,97,5.01,overcast clouds
22,Ahipara,NZ,-35.1667,173.1667,67.64,76,5,8.08,clear sky
23,Kupang,ID,-10.1667,123.5833,79.38,94,75,4.61,broken clouds
24,Salalah,OM,17.0151,54.0924,73.49,73,0,3.44,clear sky
25,Lovozero,RU,68.005,35.0117,19.31,95,100,8.88,overcast clouds
26,Torzhok,RU,57.0436,34.9622,35.8,98,100,16.67,light rain
27,Vyshneve,UA,50.3891,30.3705,50.16,88,51,13.71,broken clouds
28,Lebu,CL,-37.6167,-73.65,65.86,63,1,8.86,clear sky
29,Moses Lake,US,47.1301,-119.2781,35.96,87,100,0.0,mist
30,Faya,SA,18.3851,42.4509,55.51,69,61,2.89,broken clouds
31,Mahebourg,MU,-20.4081,57.7,80.89,83,75,18.41,moderate rain
32,Coromandel,BR,-18.4733,-47.2003,78.69,62,19,5.06,few clouds
33,Jaisalmer,IN,26.9147,70.9181,57.34,14,4,10.56,clear sky
34,Daru,PG,-9.0763,143.2092,77.25,92,100,11.39,overcast clouds
35,Tura,IN,25.5198,90.2201,51.44,57,0,3.2,clear sky
36,Blackwater,AU,-23.5833,148.8833,68.09,84,0,5.73,clear sky
37,Chuy,UY,-33.6971,-53.4616,77.65,57,14,14.38,few clouds
38,Taoudenni,ML,22.6783,-3.9836,72.0,14,100,9.69,overcast clouds
39,Grand Gaube,MU,-20.0064,57.6608,81.0,86,100,8.01,moderate rain
40,Vila Franca Do Campo,PT,37.7167,-25.4333,54.01,75,56,6.31,broken clouds
41,Bathsheba,BB,13.2167,-59.5167,83.01,61,40,18.41,scattered clouds
42,Busselton,AU,-33.65,115.3333,59.34,71,23,15.28,few clouds
43,Astana,KZ,51.1801,71.446,-9.45,77,0,4.47,mist
44,Kaitangata,NZ,-46.2817,169.8464,61.81,79,29,2.08,scattered clouds
45,Waddan,LY,29.1614,16.139,59.59,23,79,9.62,broken clouds
46,Vaini,TO,-21.2,-175.2,77.16,88,75,0.0,broken clouds
47,Yellowknife,CA,62.456,-114.3525,14.56,92,100,8.05,mist
48,Hermanus,ZA,-34.4187,19.2345,70.81,87,54,6.62,broken clouds
49,Portland,US,45.5234,-122.6762,44.82,92,100,8.99,light rain
50,Sakakah,SA,29.9697,40.2064,51.37,53,0,3.8,clear sky
51,Nuuk,GL,64.1835,-51.7216,18.21,57,100,0.0,light snow
52,Qaanaaq,GL,77.484,-69.3632,-20.67,96,100,4.07,overcast clouds
53,Raymore,US,38.8019,-94.4527,38.68,96,100,9.22,heavy intensity rain
54,Arraial Do Cabo,BR,-22.9661,-42.0278,84.16,100,20,19.57,few clouds
55,Kamaishi,JP,39.2667,141.8833,29.71,71,15,4.83,few clouds
56,Cedar City,US,37.6775,-113.0619,31.39,69,0,9.22,clear sky
57,Upernavik,GL,72.7868,-56.1549,-13.81,84,100,4.14,overcast clouds
58,Nanortalik,GL,60.1432,-45.2371,28.58,70,100,12.93,overcast clouds
59,Hambantota,LK,6.1241,81.1185,75.81,65,79,17.74,broken clouds
60,Longyearbyen,SJ,78.2186,15.6401,6.64,72,0,10.36,clear sky
61,Provideniya,RU,64.3833,-173.3,-20.16,90,15,8.52,few clouds
62,Isangel,VU,-19.55,169.2667,75.27,97,100,15.66,heavy intensity rain
63,Nikolskoye,RU,59.7035,30.7861,33.69,98,100,9.35,snow
64,Hobart,AU,-42.8794,147.3294,51.66,72,75,14.97,broken clouds
65,Pevek,RU,69.7008,170.3133,-31.95,100,100,2.46,overcast clouds
66,Cape Town,ZA,-33.9258,18.4232,73.09,76,40,5.75,scattered clouds
67,Castro,BR,-24.7911,-50.0119,70.68,88,80,7.87,broken clouds
68,Kapaa,US,22.0752,-159.319,75.18,85,20,4.61,light rain
69,Aksarka,RU,66.5606,67.7975,10.69,91,85,5.93,overcast clouds
70,Roscommon,IE,53.6333,-8.1833,33.12,88,96,6.38,overcast clouds
71,Carnarvon,AU,-24.8667,113.6333,76.82,77,41,12.8,scattered clouds
72,Tuktoyaktuk,CA,69.4541,-133.0374,8.6,85,100,5.75,overcast clouds
73,Tateyama,JP,34.9833,139.8667,44.1,78,100,16.64,overcast clouds
74,Mount Isa,AU,-20.7333,139.5,74.97,69,5,1.14,clear sky
75,Cabo San Lucas,MX,22.8909,-109.9124,78.62,66,20,8.05,few clouds
76,Avarua,CK,-21.2078,-159.775,77.05,88,75,16.11,moderate rain
77,Porto Santo,PT,33.072,-16.3415,59.38,72,40,11.5,scattered clouds
78,Thayetmyo,MM,19.3167,95.1833,62.22,48,19,0.76,few clouds
79,Najran,SA,17.4924,44.1277,59.65,48,0,5.12,clear sky
80,Sibolga,ID,1.7427,98.7792,74.1,83,99,3.18,overcast clouds
81,Mocuba,MZ,-16.8392,36.9856,73.11,97,65,2.44,light rain
82,Barrow,US,71.2906,-156.7887,-3.98,77,100,19.57,overcast clouds
83,Mporokoso,ZM,-9.3727,30.125,61.11,90,98,1.57,overcast clouds
84,Butaritari,KI,3.0707,172.7902,80.29,80,8,14.38,light rain
85,Lagoa,PT,39.05,-27.9833,55.58,67,4,6.24,clear sky
86,Port Elizabeth,ZA,-33.918,25.5701,77.31,86,0,9.22,light rain
87,Jalu,LY,29.0331,21.5482,60.58,36,0,12.15,clear sky
88,Muisne,EC,0.6,-80.0333,79.77,72,95,8.57,overcast clouds
89,Vardo,NO,70.3705,31.1107,30.18,80,0,25.32,light snow
90,Tabou,CI,4.423,-7.3528,80.4,81,88,7.65,overcast clouds
91,Dikson,RU,73.5069,80.5464,-17.14,81,100,6.31,overcast clouds
92,Okhotsk,RU,59.3833,143.3,-18.22,75,100,10.16,overcast clouds
93,Tuatapere,NZ,-46.1333,167.6833,61.25,70,14,3.98,few clouds
94,Port Lincoln,AU,-34.7333,135.8667,59.23,63,100,16.08,overcast clouds
95,Caravelas,BR,-17.7125,-39.2481,79.84,72,15,7.81,few clouds
96,Sobolevo,RU,54.4299,31.8996,38.23,98,100,20.67,overcast clouds
97,Erdenet,MN,49.0333,104.0833,-11.42,100,100,2.84,overcast clouds
98,Quesnel,CA,52.9999,-122.5029,41.5,60,75,4.61,broken clouds
99,Lata,PT,40.1629,-8.3327,45.07,87,50,3.8,scattered clouds
100,Puerto Madryn,AR,-42.7692,-65.0385,79.05,50,98,14.2,overcast clouds
101,Marsala,IT,37.7966,12.4352,53.55,87,40,14.97,scattered clouds
102,Cornwall,CA,45.0181,-74.7281,34.0,86,100,8.05,overcast clouds
103,Bredasdorp,ZA,-34.5322,20.0403,71.42,78,60,9.69,broken clouds
104,Jamestown,US,42.097,-79.2353,38.01,72,100,10.36,overcast clouds
105,Kruisfontein,ZA,-34.0033,24.7314,73.89,63,100,5.75,overcast clouds
106,Bandarbeyla,SO,9.4942,50.8122,75.29,75,19,20.0,few clouds
107,Ribeira Grande,PT,38.5167,-28.7,59.4,72,20,5.99,few clouds
108,Toora-Khem,RU,52.4675,96.11,-27.87,100,83,0.74,broken clouds
109,Bethel,US,41.3712,-73.414,50.09,54,100,12.66,overcast clouds
110,Nelson,NZ,-41.2833,173.2833,63.28,80,0,1.01,clear sky
111,Fortuna,US,40.5982,-124.1573,50.34,90,75,16.11,light rain
112,Atuona,PF,-9.8,-139.0333,77.9,79,32,17.58,light rain
113,Khatanga,RU,71.9667,102.5,-28.7,100,53,6.67,broken clouds
114,Sayat,TM,38.7839,63.8803,12.07,75,18,3.4,few clouds
115,Port Alfred,ZA,-33.5906,26.891,73.18,90,100,1.01,overcast clouds
116,Thompson,CA,55.7435,-97.8558,15.96,86,100,5.75,overcast clouds
117,Masterton,NZ,-40.9597,175.6575,63.88,82,95,4.16,overcast clouds
118,Geraldton,AU,-28.7667,114.6,72.01,78,87,6.91,overcast clouds
119,Gagra,GE,43.3283,40.2239,47.32,61,88,7.65,overcast clouds
120,Simpang,ID,-1.2667,104.0833,72.66,98,100,3.0,light rain
121,Palu,ID,-0.8917,119.8707,73.78,97,77,2.13,broken clouds
122,Katsuura,JP,35.1333,140.3,46.11,73,100,17.07,overcast clouds
123,Pisco,PE,-13.7,-76.2167,75.02,83,0,9.22,clear sky
124,Faanui,PF,-16.4833,-151.75,80.31,74,21,15.32,light rain
125,Hami,CN,42.8,93.45,13.75,47,0,3.15,clear sky
126,Muros,ES,42.7762,-9.0603,42.1,93,37,14.36,scattered clouds
127,Labrea,BR,-7.2586,-64.7981,71.67,99,100,2.66,overcast clouds
128,East London,ZA,-33.0153,27.9116,79.02,71,100,1.74,overcast clouds
129,Rantauprapat,ID,2.1,99.8333,70.72,96,92,1.77,overcast clouds
130,Constitucion,CL,-35.3333,-72.4167,68.25,59,11,7.4,few clouds
131,Puerto Baquerizo Moreno,EC,-0.9,-89.6,79.79,74,75,14.97,broken clouds
132,Cururupu,BR,-1.8283,-44.8683,77.81,91,100,2.91,overcast clouds
133,Skibbereen,IE,51.55,-9.2667,38.1,72,100,6.22,overcast clouds
134,Ouadda,CF,8.0777,22.4007,71.64,30,15,4.76,few clouds
135,Destin,US,30.3935,-86.4958,77.2,80,75,12.66,broken clouds
136,Teyateyaneng,LS,-29.1472,27.7489,71.83,37,88,2.15,overcast clouds
137,Margate,GB,51.3813,1.3862,34.7,85,3,1.99,clear sky
138,Madimba,TZ,-10.4,40.3333,77.59,81,100,1.32,light rain
139,Griffith,US,41.5284,-87.4237,39.31,77,100,5.75,overcast clouds
140,Werda,BW,-25.2667,23.2833,82.27,37,56,11.56,broken clouds
141,Svetlogorsk,BY,52.6333,29.7333,47.3,92,100,18.16,overcast clouds
142,Albany,US,42.6001,-73.9662,42.67,82,100,3.0,overcast clouds
143,Weiser,US,44.251,-116.9693,37.87,80,100,2.44,overcast clouds
144,Petropavlovsk-Kamchatskiy,RU,53.0452,158.6483,12.79,41,75,24.61,broken clouds
145,Airai,TL,-8.9266,125.4092,60.8,94,100,2.17,light rain
146,Hasaki,JP,35.7333,140.8333,39.22,61,100,17.78,overcast clouds
147,Maracaju,BR,-21.6144,-55.1683,88.27,50,78,5.59,broken clouds
148,Guanica,PR,17.9716,-66.908,83.5,54,0,5.66,clear sky
149,Humaita,BR,-7.5061,-63.0208,75.11,89,100,1.21,overcast clouds
150,Limbang,MY,4.75,115.0,73.51,97,100,1.3,overcast clouds
151,Hot Springs,US,34.5037,-93.0552,64.11,87,100,11.99,moderate rain
152,Ponta Do Sol,PT,32.6667,-17.1,62.71,66,57,10.18,broken clouds
153,Tasiilaq,GL,65.6145,-37.6368,3.36,75,100,5.68,overcast clouds
154,Leh,IN,34.1667,77.5833,9.03,65,100,1.19,overcast clouds
155,Necochea,AR,-38.5473,-58.7368,78.6,59,100,23.89,moderate rain
156,Banff,CA,51.1762,-115.5698,34.83,69,85,5.75,overcast clouds
157,Marsa Matruh,EG,31.3525,27.2453,55.6,82,0,3.44,clear sky
158,Anadyr,RU,64.75,177.4833,-17.9,69,20,15.66,few clouds
159,Vohibinany,MG,-17.35,49.0333,71.01,95,100,6.96,moderate rain
160,Coracao De Jesus,BR,-16.6853,-44.365,76.66,77,15,3.69,few clouds
161,Ambilobe,MG,-13.2,49.05,72.79,97,100,10.85,heavy intensity rain
162,Gizo,SB,-8.103,156.8419,82.26,79,87,17.72,light rain
163,Vestmannaeyjar,IS,63.4427,-20.2734,23.45,78,13,17.69,few clouds
164,Victoria,HK,22.2855,114.1577,59.25,70,56,8.01,broken clouds
165,Mar Del Plata,AR,-38.0023,-57.5575,77.83,85,100,18.41,overcast clouds
166,Stepnyak,KZ,52.8339,70.7803,6.12,60,7,8.57,clear sky
167,Paoua,CF,7.2427,16.4406,76.41,24,100,3.71,overcast clouds
168,Hofn,IS,64.2539,-15.2082,30.22,51,20,19.57,few clouds
169,Prince Rupert,CA,54.3161,-130.3201,38.89,92,75,21.85,light rain
170,Zapolyarnyy,RU,69.4154,30.8136,16.88,92,100,8.52,light snow
171,Kappeln,DE,54.6612,9.9313,33.67,85,25,17.58,scattered clouds
172,La Ronge,CA,55.1001,-105.2842,16.05,79,100,5.75,overcast clouds
173,Raga,SS,8.4596,25.678,74.1,23,4,2.08,clear sky
174,Grindavik,IS,63.8424,-22.4338,21.67,79,0,5.75,clear sky
175,Merke,KZ,42.8728,73.1786,14.52,72,4,5.7,clear sky
176,Port Hedland,AU,-20.3167,118.5667,80.65,83,75,5.75,broken clouds
177,Kareli,IN,22.9167,79.0667,52.86,36,0,4.54,clear sky
178,Salamiyah,SY,35.0113,37.0532,49.55,85,2,5.44,clear sky
179,New Norfolk,AU,-42.7826,147.0587,51.3,60,41,1.99,scattered clouds
180,Ostrovnoy,RU,68.0531,39.5131,25.84,89,100,15.97,light snow
181,Iqaluit,CA,63.7506,-68.5145,-14.31,75,20,0.0,few clouds
182,Hendek,TR,40.7994,30.7481,53.82,57,0,8.01,clear sky
183,Kourou,GF,5.1552,-52.6478,82.45,85,61,8.37,broken clouds
184,Kodino,RU,63.7198,39.6447,31.66,93,100,7.54,overcast clouds
185,Veshenskaya,RU,49.6303,41.7334,25.75,78,16,14.16,few clouds
186,Port Macquarie,AU,-31.4333,152.9167,63.9,76,95,6.6,overcast clouds
187,Bad Orb,DE,50.2279,9.3478,30.67,84,54,3.4,broken clouds
188,Kushima,JP,31.4583,131.2333,40.19,75,0,7.74,clear sky
189,Barahona,DO,18.2085,-71.1008,84.02,61,20,16.11,few clouds
190,Tautira,PF,-17.7333,-149.15,80.67,72,57,15.39,broken clouds
191,Matara,LK,5.9485,80.5353,74.68,70,99,15.9,overcast clouds
192,Shatura,RU,55.5725,39.5368,29.39,88,92,14.29,overcast clouds
193,Coihaique,CL,-45.5752,-72.0662,85.95,21,0,9.22,clear sky
194,Miraflores,MX,19.2167,-98.8083,75.97,17,45,3.69,scattered clouds
195,Monywa,MM,22.1167,95.1333,62.28,60,4,6.08,clear sky
196,San Quintin,MX,30.4833,-115.95,58.3,50,100,3.6,overcast clouds
197,Verkh-Usugli,RU,52.7,115.1667,-11.54,98,100,3.24,overcast clouds
198,Ihosy,MG,-22.4,46.1167,65.62,88,59,11.81,broken clouds
199,San Ramon,US,37.7799,-121.978,55.56,75,0,4.61,clear sky
200,Akyab,MM,20.15,92.9,63.79,62,15,10.71,few clouds
201,Esperance,AU,-33.8667,121.9,56.95,78,100,10.04,overcast clouds
202,Itoman,JP,26.1247,127.6694,60.82,63,75,12.66,broken clouds
203,Half Moon Bay,US,37.4636,-122.4286,57.0,75,20,6.91,few clouds
204,Port-Gentil,GA,-0.7193,8.7815,80.56,83,20,5.75,light rain
205,Palmer,US,42.1584,-72.3287,47.75,65,75,13.8,broken clouds
206,College,US,64.8569,-147.8028,-15.92,80,20,0.0,haze
207,Morondava,MG,-20.2833,44.2833,82.15,71,63,9.64,broken clouds
208,Ulaangom,MN,49.9811,92.0667,-5.66,87,99,0.81,overcast clouds
209,Ewa Beach,US,21.3156,-158.0072,79.41,64,20,0.0,few clouds
210,Quang Ngai,VN,15.1167,108.8,66.2,92,100,7.45,overcast clouds
211,Omboue,GA,-1.5746,9.2618,78.22,83,100,1.61,moderate rain
212,Kaura Namoda,NG,12.5898,6.5779,73.65,20,43,9.44,scattered clouds
213,Saldanha,ZA,-33.0117,17.9442,69.85,97,48,9.98,scattered clouds
214,Lusambo,CD,-4.9667,23.45,70.41,95,61,3.04,broken clouds
215,Hualmay,PE,-11.0964,-77.6139,75.13,68,56,10.83,broken clouds
216,Yemelyanovo,RU,56.1681,92.6767,-22.99,76,100,0.0,overcast clouds
217,Bonavista,CA,48.6499,-53.1147,37.13,93,100,20.47,overcast clouds
218,Doha,QA,25.2867,51.5333,62.58,61,0,12.66,clear sky
219,Kununurra,AU,-15.7667,128.7333,76.98,100,100,0.0,overcast clouds
220,Bud,US,39.447,-86.1758,41.02,87,100,6.17,moderate rain
221,Bengkulu,ID,-3.8004,102.2655,74.41,91,81,4.05,light rain
222,Ahuimanu,US,21.4447,-157.8378,79.18,67,20,3.44,few clouds
223,Buala,SB,-8.145,159.5921,80.31,83,100,10.83,light rain
224,Krasnoselkup,RU,65.7,82.4667,-10.14,97,100,14.63,overcast clouds
225,Sisimiut,GL,66.9395,-53.6735,-4.32,66,92,12.17,overcast clouds
226,Synya,RU,65.3718,58.0387,12.02,93,95,9.15,overcast clouds
227,Gardabani,GE,41.4605,45.0928,33.89,73,9,0.89,clear sky
228,Tukan,RU,53.8409,57.4552,0.72,80,1,3.13,clear sky
229,Thinadhoo,MV,0.5333,72.9333,81.63,75,21,9.42,few clouds
230,Nome,US,64.5011,-165.4064,-11.13,70,0,12.66,clear sky
231,Puerto Leguizamo,CO,-0.1934,-74.7819,85.98,56,99,3.04,overcast clouds
232,Amahai,ID,-3.3333,128.9167,77.85,85,96,5.73,overcast clouds
233,Coquimbo,CL,-29.9533,-71.3436,69.53,64,20,11.5,few clouds
234,Vestmanna,FO,62.1564,-7.1664,34.72,87,75,23.02,shower sleet
235,Torbay,CA,47.6666,-52.7314,41.58,90,75,20.71,broken clouds
236,Moerai,PF,-22.4333,-151.3333,78.19,81,100,14.14,overcast clouds
237,Moose Factory,CA,51.2585,-80.6094,15.8,85,100,12.66,overcast clouds
238,Finschhafen,PG,-6.6024,147.8681,79.38,84,100,5.82,overcast clouds
239,Crotone,IT,39.0851,17.1178,59.2,94,0,18.41,clear sky
240,Antofagasta,CL,-23.65,-70.4,70.88,68,16,9.42,few clouds
241,Namibe,AO,-15.1961,12.1522,74.66,72,99,8.48,overcast clouds
242,Formosa Do Rio Preto,BR,-11.0483,-45.1931,84.02,54,69,7.18,broken clouds
243,Khasan,RU,42.4308,130.6434,17.78,92,81,4.32,broken clouds
244,Dunedin,NZ,-45.8742,170.5036,63.39,77,21,0.47,few clouds
245,Aleksandrov Gay,RU,50.147,48.5704,19.74,93,6,8.08,clear sky
246,Ilulissat,GL,69.2167,-51.1,-30.12,69,1,6.24,clear sky
247,Hohhot,CN,40.8106,111.6522,-0.11,78,50,4.47,scattered clouds
248,Alofi,NU,-19.0595,-169.9187,82.29,83,45,8.05,scattered clouds
249,Acapulco,MX,16.8634,-99.8901,81.63,62,81,10.98,broken clouds
250,Bodden Town,KY,19.2833,-81.25,84.2,60,20,17.27,few clouds
251,Ixtapa,MX,20.7,-105.2,77.23,62,84,5.99,broken clouds
252,Kavieng,PG,-2.5744,150.7967,82.24,75,96,10.25,overcast clouds
253,Mitsamiouli,KM,-11.3847,43.2844,81.3,74,94,3.36,light rain
254,Anloga,GH,5.7947,0.8973,81.39,80,33,11.79,scattered clouds
255,Narsaq,GL,60.9167,-46.05,17.82,86,100,8.25,overcast clouds
256,Santa Cruz Del Sur,CU,20.7147,-77.9956,82.54,41,0,8.97,clear sky
257,Saskylakh,RU,71.9167,114.0833,-34.35,100,66,4.83,broken clouds
258,Iquitos,PE,-3.7481,-73.2472,87.84,70,40,9.22,scattered clouds
259,Vinh,VN,18.6667,105.6667,56.17,83,100,3.89,overcast clouds
260,Chuguyevka,RU,44.1653,133.8633,4.12,89,100,4.41,overcast clouds
261,Tuy Hoa,VN,13.0833,109.3,69.22,88,100,11.5,overcast clouds
262,Anahuac,MX,27.2333,-100.15,77.04,23,2,15.3,clear sky
263,Pacific Grove,US,36.6177,-121.9166,55.42,74,0,5.99,clear sky
264,Iznoski,RU,54.9881,35.3108,35.55,93,100,16.89,overcast clouds
265,Berlevag,NO,70.8578,29.0864,31.95,55,0,17.27,clear sky
266,Bulancak,TR,40.9372,38.2291,51.62,58,0,2.3,clear sky
267,Barra Do Garcas,BR,-15.89,-52.2567,88.38,62,40,0.0,scattered clouds
268,Katy,US,29.7858,-95.8244,76.71,65,100,13.8,overcast clouds
269,Ust-Uda,RU,54.1742,103.0304,-37.32,100,34,1.92,scattered clouds
270,Kodiak,US,57.79,-152.4072,24.31,80,0,4.61,light snow
271,Kieta,PG,-6.2167,155.6333,80.29,85,100,10.65,light rain
272,Chokurdakh,RU,70.6333,147.9167,-30.86,99,45,7.83,scattered clouds
273,Namie,JP,37.4833,141.0,32.72,68,3,7.05,clear sky
274,Saint-Philippe,RE,-21.3585,55.7679,80.19,91,100,14.97,moderate rain
275,Kahului,US,20.8947,-156.47,81.84,65,0,4.0,clear sky
276,Kulachi,PK,31.9286,70.4592,51.57,51,75,6.67,broken clouds
277,Georgetown,MY,5.4112,100.3354,80.53,81,20,4.61,few clouds
278,Fougamou,GA,-1.2154,10.5838,75.34,93,100,2.17,light rain
279,Pitea,SE,65.3172,21.4794,33.89,90,100,10.27,overcast clouds
280,Sorland,NO,67.667,12.6934,37.26,60,100,10.22,overcast clouds
281,Sitka,US,57.0531,-135.33,37.29,81,75,8.05,broken clouds
282,Broken Hill,AU,-31.95,141.4333,56.53,68,11,21.47,few clouds
283,Dali,CN,25.7,100.1833,37.11,59,0,4.54,clear sky
284,Laguna,US,38.421,-121.4238,54.61,73,0,8.05,clear sky
285,Lorengau,PG,-2.0226,147.2712,80.2,81,100,8.9,overcast clouds
286,Rafraf,TN,37.1904,10.1837,52.11,66,98,28.12,overcast clouds
287,Poum,NC,-20.2333,164.0167,78.93,76,70,15.43,broken clouds
288,Samarai,PG,-10.6167,150.6667,80.6,81,100,10.58,overcast clouds
289,Ishigaki,JP,24.3448,124.1572,60.93,88,100,17.27,overcast clouds
290,Gympie,AU,-26.1898,152.665,62.11,91,0,2.75,clear sky
291,Ampanihy,MG,-24.7,44.75,75.52,59,0,10.02,clear sky
292,Tambacounda,SN,13.7539,-13.7586,91.45,16,0,6.91,clear sky
293,Sokoni,TZ,-6.4333,39.55,80.46,76,91,9.73,overcast clouds
294,Komsomolskiy,UZ,40.4272,71.7189,20.12,79,88,4.61,mist
295,Monchegorsk,RU,67.9397,32.8739,20.44,94,100,10.51,overcast clouds
296,Matay,EG,28.419,30.7792,57.36,37,0,4.76,clear sky
297,Lavrentiya,RU,65.5833,-171.0,-22.63,94,9,7.29,clear sky
298,Sambava,MG,-14.2667,50.1667,76.3,95,100,31.09,heavy intensity rain
299,Abnub,EG,27.2696,31.1511,57.42,35,0,3.74,clear sky
300,Mayo,US,38.8876,-76.5119,58.08,50,0,16.11,clear sky
301,Norman Wells,CA,65.282,-126.8329,-3.96,77,100,3.44,overcast clouds
302,Champerico,GT,14.3,-91.9167,90.14,55,36,10.85,scattered clouds
303,Riyadh,SA,24.6877,46.7219,51.94,51,77,8.32,broken clouds
304,Alta Floresta,BR,-9.8756,-56.0861,79.18,87,100,3.13,overcast clouds
305,Barranca,PE,-10.75,-77.7667,74.1,68,52,11.12,broken clouds
306,Saint-Paul,RE,-21.0096,55.2707,84.99,100,100,1.99,light rain
307,Nisia Floresta,BR,-6.0911,-35.2086,79.61,68,81,11.36,broken clouds
308,Road Town,VG,18.4167,-64.6167,80.69,65,75,5.75,broken clouds
309,Macenta,GN,8.5435,-9.471,75.45,18,100,3.67,overcast clouds
310,Deloraine,AU,-41.5333,146.6667,50.14,78,10,3.36,clear sky
311,Naze,JP,28.3667,129.4833,52.72,66,97,9.01,overcast clouds
312,Tekeli,KZ,44.83,78.8239,16.57,52,0,9.75,clear sky
313,Severo-Kurilsk,RU,50.6789,156.125,15.46,61,100,25.75,light snow
314,Comodoro Rivadavia,AR,-45.8667,-67.5,80.46,47,20,10.36,few clouds
315,Takoradi,GH,4.8845,-1.7554,80.4,84,75,9.82,broken clouds
316,Padang,ID,-0.9492,100.3543,75.25,88,100,4.05,overcast clouds
317,Biak,ID,-0.9131,122.8766,76.17,82,99,3.8,overcast clouds
318,San Patricio,US,28.017,-97.5169,85.86,54,87,15.01,overcast clouds
319,Alegrete,BR,-29.7831,-55.7919,101.5,21,30,4.29,scattered clouds
320,Sitio Novo Do Tocantins,BR,-5.5183,-47.4611,78.73,83,75,4.61,moderate rain
321,Thunder Bay,CA,48.4001,-89.3168,22.98,74,100,5.75,overcast clouds
322,Vaitape,PF,-16.5167,-151.75,80.33,74,22,15.35,light rain
323,Constantine,DZ,36.365,6.6147,42.21,56,40,8.05,scattered clouds
324,Tinskoy,RU,56.1525,96.9161,-34.6,100,46,2.86,scattered clouds
325,Vertientes,CU,21.2594,-78.1464,84.81,29,0,8.28,clear sky
326,Srednekolymsk,RU,67.45,153.6833,-31.77,98,100,4.52,overcast clouds
327,Anchorage,US,61.2181,-149.9003,26.31,90,20,9.22,fog
328,Sur,OM,22.5667,59.5289,72.1,79,78,10.38,broken clouds
329,Bairiki,KI,1.3292,172.9752,77.0,94,75,9.22,light intensity shower rain
330,Miri,MY,4.4148,114.0089,75.34,94,40,6.91,light rain
331,Guerrero Negro,MX,27.9769,-114.0611,61.03,51,98,13.2,overcast clouds
332,Taree,AU,-31.9,152.4667,71.06,90,95,1.74,overcast clouds
333,Myre,NO,69.1036,15.9492,31.95,64,100,11.97,overcast clouds
334,Saint George,US,37.1041,-113.5841,47.43,49,0,6.91,clear sky
335,Luderitz,NA,-26.6481,15.1594,67.57,82,9,13.69,clear sky
336,Qarchi Gak,AF,37.04,66.7889,26.47,79,100,3.78,overcast clouds
337,Maua,BR,-23.6678,-46.4614,76.8,91,100,8.9,overcast clouds
338,Tomatlan,MX,19.9333,-105.25,82.76,39,90,8.59,overcast clouds
339,Marquette,US,46.5333,-87.6335,29.82,85,100,7.78,overcast clouds
340,Souillac,MU,-20.5167,57.5167,80.98,83,75,18.41,light rain
341,Port-Cartier,CA,50.0334,-66.8654,35.82,97,100,6.6,snow
342,Nelson Bay,AU,-32.7167,152.15,71.65,97,100,8.01,light rain
343,Assiniboia,CA,49.6334,-105.9845,28.22,93,91,2.3,overcast clouds
344,Sampit,ID,-2.5333,112.95,72.93,99,100,1.77,overcast clouds
345,Durban,ZA,-29.8579,31.0292,80.92,93,25,3.0,scattered clouds
346,Nkhotakota,MW,-12.9274,34.2961,71.94,91,100,1.07,moderate rain
347,Yako,BF,12.9667,-2.2667,75.47,13,0,9.33,clear sky
348,Sterling,US,39.0062,-77.4286,57.43,55,40,13.8,scattered clouds
349,Santa Cruz De Tenerife,ES,28.4682,-16.2546,66.72,92,75,10.36,broken clouds
350,Yulara,AU,-25.2406,130.9889,74.61,46,0,17.36,clear sky
351,Bogovarovo,RU,58.9785,47.0246,17.01,91,63,9.06,broken clouds
352,Novo Aripuana,BR,-5.1206,-60.3797,73.49,88,100,3.56,overcast clouds
353,Dongzhen,CN,22.3797,110.9389,49.26,83,0,4.12,clear sky
354,Cockburn Town,TC,21.4612,-71.1419,76.06,60,14,13.89,few clouds
355,Goleta,TN,36.8181,10.305,53.6,54,40,12.66,thunderstorm
356,Genhe,CN,50.7833,121.5167,-12.64,100,100,1.25,overcast clouds
357,Wamba,NG,8.9333,8.6,77.65,22,79,2.8,broken clouds
358,Hobyo,SO,5.3505,48.5268,76.84,79,76,19.1,broken clouds
359,Macapa,BR,0.0389,-51.0664,80.58,83,75,4.61,broken clouds
360,Kijang,KR,35.2442,129.2139,29.93,57,0,5.66,clear sky
361,Ancud,CL,-41.8697,-73.8203,66.61,59,77,7.2,broken clouds
362,Port Blair,IN,11.6667,92.75,71.64,88,100,0.0,mist
363,Concordia,AR,-31.393,-58.0209,95.07,38,75,4.61,broken clouds
364,La Palma,US,33.8464,-118.0467,62.78,62,75,1.99,broken clouds
365,Novoagansk,RU,61.9449,76.6625,0.21,98,77,7.31,broken clouds
366,Bourail,NC,-21.5667,165.4833,74.64,81,74,5.61,broken clouds
367,Berdsk,RU,54.7551,83.0967,4.6,89,100,9.75,overcast clouds
368,Safakulevo,RU,54.9901,62.5442,-0.94,88,11,2.77,few clouds
369,Itapolis,BR,-21.5956,-48.8128,82.38,64,95,2.64,moderate rain
370,Emba,KZ,48.8264,58.1442,10.31,74,95,9.26,overcast clouds
371,Pangnirtung,CA,66.1451,-65.7125,-11.2,58,20,2.3,few clouds
372,Brigantine,US,39.4101,-74.3646,58.03,57,20,19.57,few clouds
373,Nizwa,OM,22.9333,57.5333,66.6,70,82,0.87,broken clouds
374,Saint-Francois,FR,46.4154,3.9054,29.64,86,0,3.44,clear sky
375,Atar,MR,20.5169,-13.0499,69.75,29,0,8.81,clear sky
376,Beaupre,CA,47.0443,-70.8953,42.46,64,100,3.44,overcast clouds
377,Camacha,PT,33.0833,-16.3333,56.62,67,40,18.41,scattered clouds
378,Mount Gambier,AU,-37.8333,140.7667,56.21,50,97,10.31,overcast clouds
379,Rajapur,IN,25.3833,81.15,48.61,51,0,2.04,clear sky
380,Cristalina,BR,-16.7686,-47.6136,70.14,75,88,4.41,overcast clouds
381,Colares,PT,38.7992,-9.4469,51.33,79,40,23.0,scattered clouds
382,Leningradskiy,RU,69.3833,178.4167,-20.04,98,100,23.35,light snow
383,Puerto Escondido,MX,15.85,-97.0667,83.26,64,8,11.88,clear sky
384,Frederick,US,39.4668,-77.3997,54.73,69,100,13.8,overcast clouds
385,Clyde River,CA,70.4692,-68.5914,-25.37,68,20,10.36,few clouds
386,Samfya,ZM,-11.3649,29.5565,64.2,92,85,1.07,light rain
387,Oranjemund,NA,-28.55,16.4333,65.3,94,15,7.56,few clouds
388,Brae,GB,60.3964,-1.353,37.85,65,91,22.28,light rain
389,Santiago De Cao,PE,-7.9589,-79.2392,73.53,64,20,11.5,fog
390,Chegdomyn,RU,51.1167,133.0167,-20.83,96,100,2.21,overcast clouds
391,Sencha,UA,50.2548,33.346,46.31,91,100,20.22,light rain
392,Kloulklubed,PW,7.0419,134.2556,77.5,78,100,14.18,overcast clouds
393,Vallenar,CL,-28.5708,-70.7581,86.9,26,0,11.16,clear sky
394,Qaqortoq,GL,60.7167,-46.0333,27.09,77,100,8.75,overcast clouds
395,Saint-Pierre,RE,-21.3393,55.4781,84.56,78,100,24.16,light rain
396,Lanxi,CN,29.2195,119.477,37.26,67,42,2.35,scattered clouds
397,Priiskovyy,RU,51.9333,116.6333,-10.73,99,100,4.63,overcast clouds
398,Tucupita,VE,9.0622,-62.051,79.95,74,54,5.37,broken clouds
399,General Roca,AR,-39.0333,-67.5833,91.62,25,0,10.18,clear sky
400,Afyonkarahisar,TR,38.75,30.6667,41.18,81,2,5.97,clear sky
401,Talnakh,RU,69.4865,88.3972,-25.17,84,100,5.79,overcast clouds
402,Fairbanks,US,64.8378,-147.7164,-15.92,80,20,0.0,haze
403,Gelemso,ET,8.8167,40.5167,58.93,32,100,5.68,overcast clouds
404,Zhezkazgan,KZ,47.8043,67.7144,5.49,85,4,9.46,clear sky
405,Gibara,CU,21.1097,-76.1317,87.12,50,0,14.67,clear sky
406,Adrar,MR,20.5022,-10.0711,68.27,28,100,10.45,overcast clouds
407,Codrington,AU,-38.2667,141.9667,56.88,52,100,14.29,overcast clouds
408,Banjar,ID,-8.19,114.9675,77.23,90,100,2.64,overcast clouds
409,Sept-Iles,CA,50.2001,-66.3821,36.12,87,100,5.75,light rain
410,Husavik,IS,66.0449,-17.3389,25.83,77,100,13.2,light snow
411,Mattru,SL,7.6244,-11.8332,76.1,76,100,5.61,overcast clouds
412,Harrismith,ZA,-28.2728,29.1295,67.23,35,100,2.95,overcast clouds
413,Port Keats,AU,-14.25,129.55,80.1,88,100,9.48,overcast clouds
414,Alenquer,BR,-1.9417,-54.7383,73.44,96,100,0.65,light rain
415,Korla,CN,41.7597,86.1469,5.63,87,37,1.28,scattered clouds
416,Wucheng,CN,29.6008,118.175,36.32,66,68,0.4,broken clouds
417,Zhaodong,CN,46.0833,125.9833,4.03,93,100,7.58,overcast clouds
418,Swan Hill,AU,-35.3378,143.5544,53.28,54,0,11.32,clear sky
419,Anori,BR,-3.7728,-61.6442,79.32,81,95,1.97,overcast clouds
420,Lincoln,US,40.8,-96.667,32.29,94,100,18.41,freezing rain
421,Makakilo City,US,21.3469,-158.0858,77.99,64,20,0.0,few clouds
422,Santa Marta,CO,11.2408,-74.199,89.65,57,20,7.0,few clouds
423,Havelock,US,34.8791,-76.9013,73.35,54,40,9.22,scattered clouds
424,Tilichiki,RU,60.4667,166.1,-8.61,94,100,8.7,overcast clouds
425,Oktyabrskoye,RU,43.0645,44.7417,24.94,100,12,2.24,fog
426,Westerstede,DE,53.25,7.9333,36.97,96,88,21.54,light rain
427,Kuah,MY,6.3265,99.8432,78.78,78,20,2.3,few clouds
428,Jinchang,CN,38.4953,102.1739,16.07,40,2,7.96,clear sky
429,Keti Bandar,PK,24.1447,67.4497,67.89,38,100,8.16,overcast clouds
430,Fare,PF,-16.7,-151.0167,80.46,72,9,14.97,clear sky
431,Rabak,SD,13.1809,32.74,78.19,34,88,13.42,overcast clouds
432,Heiligenhafen,DE,54.3667,10.9833,31.75,84,10,16.2,clear sky
433,Atherton,GB,53.5237,-2.4935,39.42,88,12,4.0,few clouds
434,Moranbah,AU,-22.0016,148.0466,67.28,96,18,11.14,few clouds
435,Tabuk,PH,17.4189,121.4443,69.37,92,100,5.01,overcast clouds
436,Egvekinot,RU,66.3167,-179.1667,-18.27,88,100,7.05,overcast clouds
437,Sechura,PE,-5.5569,-80.8222,80.2,53,17,17.09,few clouds
438,Yeppoon,AU,-23.1333,150.7333,67.78,84,61,11.79,broken clouds
439,Meulaboh,ID,4.1363,96.1285,73.04,84,78,3.56,broken clouds
440,Bardiyah,LY,31.7561,25.0865,59.72,56,0,10.0,clear sky
441,Torata,PE,-17.0769,-70.8433,67.42,45,28,11.59,scattered clouds
442,Cayenne,GF,4.9333,-52.3333,82.44,65,100,13.8,overcast clouds
443,Luau,AO,-10.7073,22.2247,63.95,96,93,3.36,overcast clouds
444,Slantsy,RU,59.1182,28.0914,33.26,98,100,7.72,overcast clouds
445,Bethanien,NA,-26.502,17.1583,81.18,33,88,9.46,overcast clouds
446,Lufilufi,WS,-13.8745,-171.5986,78.58,81,100,18.45,overcast clouds
447,Birjand,IR,32.8663,59.2211,32.47,93,75,6.91,broken clouds
448,The Valley,AI,18.217,-63.0578,80.74,69,20,6.91,few clouds
449,Port Dover,CA,42.7834,-80.1997,39.81,80,100,11.07,overcast clouds
450,Zyryanka,RU,65.75,150.85,-24.47,97,100,11.39,overcast clouds
451,Kenai,US,60.5544,-151.2583,22.14,90,100,3.44,snow
452,Ossett,GB,53.6798,-1.5801,35.69,65,8,5.23,clear sky
453,Yarmouth,US,41.7057,-70.2286,53.74,68,20,13.0,few clouds
454,Fort Nelson,CA,58.8053,-122.7002,9.95,89,100,0.0,mist
455,Morehead,US,37.2711,-87.1764,61.0,73,100,6.91,overcast clouds
456,Cidreira,BR,-30.1811,-50.2056,74.84,85,100,13.33,overcast clouds
457,Chelmno,PL,53.3485,18.4251,34.45,83,100,4.0,overcast clouds
458,Bekhtery,UA,46.251,32.2927,49.84,84,92,21.88,overcast clouds
459,Esterhazy,CA,50.65,-102.0843,11.25,93,66,6.49,broken clouds
460,Monte Santo De Minas,BR,-21.1897,-46.9803,75.69,81,13,2.57,few clouds
461,Kolhapur,IN,16.7,74.2167,66.72,45,43,2.64,scattered clouds
462,Huilong,CN,31.8111,121.655,35.26,55,5,3.0,clear sky
463,Carmelo,UY,-33.9892,-58.2856,87.24,40,100,18.95,overcast clouds
464,Indramayu,ID,-6.3264,108.32,77.83,87,100,9.01,moderate rain
465,Kavaratti,IN,10.5669,72.642,80.19,76,26,7.81,scattered clouds
466,Kangaatsiaq,GL,68.3065,-53.4641,-21.28,81,3,8.25,clear sky
467,Butzbach,DE,50.4339,8.6712,32.18,88,93,4.59,overcast clouds
468,Plettenberg Bay,ZA,-34.0527,23.3716,74.28,86,100,3.76,overcast clouds
469,Golden,US,39.7555,-105.2211,31.33,90,100,15.99,light snow
470,Broome,US,42.2506,-75.833,41.68,83,100,12.66,overcast clouds
471,Himatangi,NZ,-40.4,175.3167,65.86,86,65,6.53,broken clouds
472,Pundaguitan,PH,6.3711,126.1689,80.06,79,99,7.18,overcast clouds
473,Luocheng,CN,29.3848,104.0286,37.13,65,2,1.14,clear sky
474,Coos Bay,US,43.3665,-124.2179,43.14,94,100,14.97,overcast clouds
475,Oyama,JP,36.3,139.8,44.58,58,83,3.8,broken clouds
476,Menomonie,US,44.8755,-91.9193,34.27,100,100,9.22,overcast clouds
477,Qui Nhon,VN,13.7667,109.2333,68.07,90,100,16.58,overcast clouds
478,Sangar,RU,63.9242,127.4739,-57.46,99,96,2.89,overcast clouds
479,Iisalmi,FI,63.5592,27.1907,32.25,94,100,6.93,overcast clouds
480,Hervey Bay,AU,-25.2986,152.8535,70.41,76,1,9.22,clear sky
481,Bosaso,SO,11.2842,49.1816,73.45,73,20,2.21,few clouds
482,Olafsvik,IS,64.8945,-23.7142,24.37,79,70,12.53,broken clouds
483,Shingu,JP,33.7333,135.9833,37.38,79,3,6.49,clear sky
484,Sulangan,PH,11.1373,123.7228,78.55,83,100,15.52,overcast clouds
485,Annau,TM,37.8876,58.516,26.1,80,1,2.3,mist
486,Karatau,KZ,43.1667,70.4667,5.59,89,31,2.59,scattered clouds
487,Kanniyakumari,IN,8.0833,77.5667,74.98,73,3,24.34,clear sky
488,Innisfail,AU,-17.5333,146.0333,74.89,92,100,5.95,overcast clouds
489,Liwale,TZ,-9.7667,37.9333,69.62,96,94,0.81,light rain
490,Zaranj,AF,30.9667,61.8833,40.96,93,82,4.54,broken clouds
491,Igarka,RU,67.4667,86.5833,-18.67,83,100,8.63,overcast clouds
492,Visby,SE,57.6409,18.296,28.62,100,0,2.3,clear sky
493,Trofors,NO,65.5333,13.4063,28.27,94,100,4.43,overcast clouds
494,Amazar,RU,53.858,120.875,-23.21,97,100,3.47,overcast clouds
495,Sinnamary,GF,5.3833,-52.95,77.77,83,36,9.73,scattered clouds
496,Chapais,CA,49.7834,-74.8492,26.38,87,100,12.19,overcast clouds
497,Hailun,CN,47.45,126.9333,-4.61,99,100,4.14,overcast clouds
498,Waitara,NZ,-38.925,174.25,64.99,65,6,4.56,clear sky
499,Miyako,JP,39.6367,141.9525,28.9,65,1,6.17,clear sky
500,Chimoio,MZ,-19.1164,33.4833,73.26,94,40,0.67,light rain
501,Tiquisate,GT,14.2833,-91.3667,89.4,39,3,9.19,clear sky
502,Aripuana,BR,-9.1667,-60.6333,77.38,95,100,1.34,overcast clouds
503,Sola,VU,-13.8833,167.55,80.6,82,100,34.09,moderate rain
504,Lypova Dolyna,UA,50.5643,33.7979,45.1,93,100,20.83,moderate rain
505,Puri,IN,19.8,85.85,72.12,82,46,3.04,scattered clouds
506,Songea,TZ,-10.6833,35.65,67.35,94,75,1.14,light rain
507,Eyl,SO,7.9803,49.8164,74.73,75,4,20.31,clear sky
508,Jalingo,NG,8.8833,11.3667,78.57,22,100,4.72,overcast clouds
509,Kharan,PK,28.5833,65.4167,49.26,84,100,2.95,overcast clouds
510,Mahon,ES,39.8885,4.2658,43.36,81,40,4.61,scattered clouds
511,Ahmadnagar,IN,19.0833,74.7333,67.71,34,4,2.35,clear sky
512,Kangshan,CN,28.8812,116.4311,44.4,56,99,1.63,overcast clouds
513,Jalgaon,IN,21.0167,75.5667,66.0,36,3,6.04,clear sky
514,Tarko-Sale,RU,64.9225,77.785,-1.41,96,100,7.96,overcast clouds
515,Borazjan,IR,29.2666,51.2159,56.07,85,66,1.54,broken clouds
516,Bushehr,IR,28.9684,50.8385,57.29,82,0,4.61,mist
517,Kolo,PL,52.2002,18.6387,32.81,97,97,5.1,overcast clouds
518,Zhigansk,RU,66.7697,123.3711,-59.64,98,50,5.95,scattered clouds
519,Azoyu,MX,16.7167,-98.7333,86.67,46,25,9.6,scattered clouds
520,Aswan,EG,24.0934,32.907,65.5,39,0,4.61,clear sky
521,Klaksvik,FO,62.2266,-6.589,36.52,77,94,30.36,light rain
522,Pochutla,MX,15.7432,-96.4661,85.82,53,49,11.61,scattered clouds
523,Koundara,GN,12.4833,-13.3,83.46,12,0,5.03,clear sky
524,Vite,IN,17.2833,74.55,69.46,35,48,6.44,scattered clouds
525,Guane,CU,22.2025,-84.0875,81.05,55,98,12.37,overcast clouds
526,Shimoda,JP,34.6667,138.95,41.11,84,76,13.94,broken clouds
527,Never,FR,46.9896,3.159,31.75,95,13,5.19,few clouds
528,Bereznik,RU,62.8551,42.7072,29.84,95,100,8.19,overcast clouds
529,Baherden,TM,38.4362,57.4316,32.76,60,4,2.46,clear sky
530,Muli,MV,2.9167,73.5667,80.65,79,76,15.08,broken clouds
531,Ures,MX,29.4333,-110.4,59.74,35,14,2.84,few clouds
532,Port Hardy,CA,50.6996,-127.4199,39.38,93,75,8.05,broken clouds
533,Tessalit,ML,20.1986,1.0114,69.84,14,73,5.39,broken clouds
534,Sasni,IN,27.7167,78.0833,45.64,58,0,3.74,clear sky
535,Pio Duran,PH,13.0293,123.445,75.72,92,100,3.74,overcast clouds
536,Tena,EC,-0.9833,-77.8167,75.36,83,69,1.74,moderate rain
537,Flinders,AU,-34.5833,150.8552,65.17,89,100,5.01,moderate rain
538,Kushiro,JP,42.975,144.3747,12.36,75,12,4.76,few clouds
539,Luena,AO,-11.7833,19.9167,61.5,96,100,4.54,overcast clouds
540,Ranau,MY,5.9538,116.6641,68.16,96,84,1.05,broken clouds
541,Katobu,ID,-4.9408,122.5276,74.7,93,99,2.33,overcast clouds
542,Elat,IL,29.5581,34.9482,58.84,58,0,5.75,clear sky
543,Kasongo-Lunda,CD,-6.4667,16.8167,71.67,88,87,1.88,light rain
544,Zarichne,UA,51.8126,26.129,40.08,81,30,16.62,scattered clouds
545,Ust-Nera,RU,64.5667,143.2,-29.29,99,100,5.14,overcast clouds
546,Whyalla,AU,-33.0333,137.5833,59.52,64,0,21.34,clear sky
547,Baykit,RU,61.67,96.37,-44.91,100,70,1.54,broken clouds
548,Strezhevoy,RU,60.7333,77.5889,3.54,95,100,8.01,overcast clouds
549,San Cristobal,VE,7.7669,-72.225,78.98,46,80,3.94,broken clouds
550,Lakes Entrance,AU,-37.8811,147.981,55.17,69,81,10.98,broken clouds
551,Kalmunai,LK,7.4167,81.8167,77.22,62,100,9.37,overcast clouds
552,Nabire,ID,-3.3667,135.4833,73.99,91,100,2.71,overcast clouds
553,Lompoc,US,34.6391,-120.4579,59.52,57,75,4.0,broken clouds
554,Mana,GF,5.6592,-53.7767,77.95,78,32,9.17,scattered clouds
555,Bhatkal,IN,13.9667,74.5667,72.63,44,29,5.7,scattered clouds
556,Whitehorse,CA,60.7161,-135.0538,20.17,93,75,6.91,broken clouds
557,Keene,US,42.9337,-72.2781,46.58,72,100,5.75,overcast clouds
558,Pandan,PH,14.0453,124.1694,75.7,94,100,17.58,moderate rain
559,Solnechnyy,RU,50.7214,136.6319,-18.09,98,100,1.16,overcast clouds
560,Pahrump,US,36.2083,-115.9839,44.51,47,0,5.99,clear sky
561,Hay River,CA,60.8156,-115.7999,6.76,85,40,4.61,scattered clouds
562,Makinsk,KZ,52.6292,70.4169,1.62,64,7,7.34,clear sky
563,Kedrovyy,RU,56.1667,91.8167,-23.39,98,100,3.6,light snow
564,Lesnoye,RU,58.2841,35.5158,34.93,97,100,14.14,light snow
565,Siguiri,GN,11.6667,-9.5,80.64,12,0,3.78,clear sky
566,Yar-Sale,RU,66.8333,70.8333,-5.33,100,82,2.82,broken clouds
567,Ipixuna,BR,-1.7625,-48.8043,73.06,97,100,2.08,moderate rain
568,Svetlyy,RU,54.675,20.1347,37.45,86,100,13.02,light rain
569,Bereda,ES,43.2686,-7.5406,38.57,100,97,2.86,overcast clouds
570,Rio Gallegos,AR,-51.6226,-69.2181,82.45,23,40,24.16,scattered clouds
571,Atambua,ID,-9.1061,124.8925,73.74,89,100,1.34,heavy intensity rain
572,Suhut,TR,38.5311,30.5458,41.05,81,0,7.38,clear sky
573,Grand Island,US,40.925,-98.342,30.2,92,100,10.36,snow
574,Erenhot,CN,43.6475,111.9767,11.17,77,100,18.79,overcast clouds
575,Colonia,DE,50.9333,6.95,35.89,76,0,9.22,clear sky
576,Manicore,BR,-5.8092,-61.3003,80.55,74,40,6.91,scattered clouds
577,Sao Filipe,CV,14.8961,-24.4956,75.65,67,1,14.7,clear sky
578,Mackay,AU,-21.15,149.2,75.69,81,51,18.97,broken clouds
579,Beringovskiy,RU,63.05,179.3167,-23.51,94,25,6.58,scattered clouds
580,Pirgos,GR,35.1167,25.7178,62.62,71,12,14.58,few clouds
581,La Asuncion,VE,11.0333,-63.8628,91.13,52,69,17.27,broken clouds
582,Pingliang,CN,35.5392,106.6861,21.69,50,19,6.76,few clouds
583,Labuan,MY,5.2767,115.2417,75.56,94,40,0.0,scattered clouds
584,Oume,JP,35.7839,139.2431,38.86,58,0,0.0,clear sky
585,Vitim,RU,59.4511,112.5578,-36.53,91,100,5.01,overcast clouds
586,Deer Lake,CA,49.1667,-57.4316,37.26,93,100,10.36,overcast clouds
587,Mariental,NA,-24.6333,17.9667,83.57,35,91,3.56,light rain
588,Juneau,US,58.3019,-134.4197,38.21,97,75,10.36,light snow
589,Acajutla,SV,13.5928,-89.8275,82.51,62,0,8.12,clear sky
590,Lai,TD,9.3952,16.2989,79.72,22,90,5.57,overcast clouds
591,Mumford,GH,5.2618,-0.759,80.31,84,64,10.42,broken clouds
592,Jacareacanga,BR,-6.2222,-57.7528,74.43,86,100,2.51,overcast clouds
593,Dingle,PH,10.9995,122.6711,74.28,94,100,7.29,overcast clouds
594,Richards Bay,ZA,-28.783,32.0377,79.81,72,5,14.67,clear sky
595,Changtu,CN,42.7788,124.0955,20.5,79,86,11.23,overcast clouds
596,Dzilam Gonzalez,MX,21.2833,-88.9333,91.44,31,51,9.33,broken clouds
597,Puerto Madero,MX,14.7208,-92.4215,88.0,48,20,8.05,few clouds
598,Pervomayskoye,RU,43.919,46.7102,37.26,90,6,9.55,clear sky
599,Swan River,CA,52.1058,-101.2676,6.69,85,99,1.14,overcast clouds
600,Santa Ines,BR,-3.6667,-45.38,77.45,90,98,3.11,light rain
601,Tambura,SS,5.6,27.4667,76.39,25,1,5.82,clear sky
602,Chimbarongo,CL,-34.7,-71.05,88.72,14,0,10.07,clear sky
603,Camana,PE,-16.6228,-72.7111,74.35,72,29,8.48,scattered clouds
604,Cedro,BR,-6.6067,-39.0622,88.03,41,96,2.24,light rain
605,Rio Grande,BR,-32.035,-52.0986,82.51,67,26,14.79,scattered clouds
606,Pangai,TO,-19.8,-174.35,82.51,78,40,5.75,scattered clouds
607,Umm Lajj,SA,25.0213,37.2685,72.21,38,95,7.58,overcast clouds
608,Abomey,BJ,7.1829,1.9912,79.7,68,5,8.61,clear sky
609,Cam Ranh,VN,11.9214,109.1591,75.16,69,40,18.41,scattered clouds
610,Paamiut,GL,61.994,-49.6678,26.8,86,100,10.94,overcast clouds
611,Paracatu,BR,-17.2222,-46.8747,77.67,70,97,0.47,overcast clouds
612,Sambhal,IN,28.5833,78.55,46.06,51,2,4.74,clear sky
613,Burnie,AU,-41.0667,145.9167,51.94,75,23,10.47,few clouds
614,Nishihara,JP,26.1842,127.7558,58.66,67,40,12.66,scattered clouds
615,Portel,BR,-1.9356,-50.8211,73.26,95,100,2.68,overcast clouds
616,Dubbo,AU,-32.25,148.6167,66.33,94,40,1.14,scattered clouds
617,Mabaruma,GY,8.2,-59.7833,79.12,72,62,5.99,broken clouds
618,Soyo,AO,-6.1349,12.3689,80.06,84,100,7.9,overcast clouds
619,Verkhnevilyuysk,RU,63.4453,120.3167,-69.41,100,68,1.79,broken clouds
620,Torrevieja,ES,37.9787,-0.6822,53.01,42,1,1.99,clear sky
621,Kokopo,PG,-4.352,152.2633,76.71,84,90,6.89,light rain
622,Nha Trang,VN,12.25,109.1833,75.2,83,99,10.65,overcast clouds
623,Noumea,NC,-22.2763,166.4572,79.0,99,100,13.35,overcast clouds
624,Funtua,NG,11.5233,7.3081,68.76,23,7,10.09,clear sky
625,Fomboni,KM,-12.28,43.7425,82.29,69,100,7.94,overcast clouds
626,Mingshui,CN,36.7167,117.5,30.11,54,61,6.31,broken clouds
627,Oistins,BB,13.0667,-59.5333,82.49,61,40,18.41,scattered clouds
628,Vao,NC,-22.6667,167.4833,73.09,75,100,25.26,light rain
629,Paita,PE,-5.0892,-81.1144,77.07,62,33,15.99,scattered clouds
630,Baruun-Urt,MN,46.6806,113.2792,-0.17,74,100,13.91,overcast clouds
631,Talcahuano,CL,-36.7167,-73.1167,62.28,72,0,13.8,clear sky
632,Marinette,US,45.1,-87.6307,32.09,80,100,3.44,overcast clouds
633,Tutoia,BR,-2.7619,-42.2744,81.43,76,100,13.71,light rain
634,Touros,BR,-5.1989,-35.4608,81.32,71,98,12.68,overcast clouds
635,Plouzane,FR,48.3833,-4.6167,41.32,75,75,10.36,broken clouds
636,Abu Dhabi,AE,24.4667,54.3667,68.11,73,20,13.8,few clouds
637,Hebi,CN,35.8992,114.1925,32.29,38,51,4.21,broken clouds
638,Miragoane,HT,18.4423,-73.0876,77.32,60,0,4.59,clear sky
639,Kapuskasing,CA,49.4169,-82.4331,15.89,86,100,10.36,overcast clouds
640,Kodar,IN,16.9833,79.9667,63.75,91,39,4.23,scattered clouds
641,Port Said,EG,31.2565,32.2841,62.58,82,0,10.36,clear sky
642,Bichura,RU,50.5881,107.6022,-13.13,85,99,9.57,overcast clouds
643,Burns Lake,CA,54.2331,-125.7533,33.22,84,100,6.2,overcast clouds
644,Mehamn,NO,71.0357,27.8492,31.91,59,100,6.91,overcast clouds
645,Idenao,CM,4.2475,9.0047,80.62,78,100,5.88,overcast clouds
646,Tinyahuarco,PE,-10.75,-76.3,49.62,65,100,12.01,overcast clouds
647,Jefferson City,US,38.5767,-92.1735,42.67,94,100,13.29,light rain
648,Bilibino,RU,68.0546,166.4372,-33.95,99,100,1.52,overcast clouds
649,Quatre Cocos,MU,-20.2078,57.7625,80.71,88,100,17.67,moderate rain
650,Shenjiamen,CN,29.9576,122.298,41.52,54,1,6.15,clear sky
651,Belaya Gora,RU,68.5333,146.4167,-28.28,98,99,3.2,overcast clouds
652,Itarema,BR,-2.9248,-39.9167,80.73,73,77,14.2,broken clouds
653,Sukumo,JP,32.9333,132.7333,38.05,79,3,7.99,clear sky
654,Novyy Urengoy,RU,66.0833,76.6333,-8.57,99,89,6.73,overcast clouds
655,Cornelius,US,35.4868,-80.8601,63.52,71,100,1.01,overcast clouds
656,York,US,40.1254,-77.0,49.59,62,75,13.8,broken clouds
657,Grong,NO,64.4654,12.3149,29.48,97,100,3.56,light snow
658,Viedma,AR,-40.8135,-62.9967,84.25,44,99,17.65,overcast clouds
659,Avera,US,33.194,-82.5271,66.38,72,98,7.36,overcast clouds
660,Yumen,CN,40.2833,97.2,10.51,62,80,19.64,broken clouds
661,Lasa,IT,46.6166,10.7002,26.37,92,93,5.46,overcast clouds
662,Gorontalo,ID,0.5412,123.0595,74.66,95,100,3.44,overcast clouds
663,Bubaque,GW,11.2833,-15.8333,78.21,72,1,9.26,clear sky
664,Nizhniy Ufaley,RU,55.9153,59.9842,4.42,84,67,4.03,broken clouds
665,De Aar,ZA,-30.6497,24.0123,76.5,45,94,23.51,overcast clouds
666,Pasni,PK,25.2631,63.471,69.69,60,98,3.89,overcast clouds
667,Kimbe,PG,-5.5502,150.1429,76.06,92,100,2.75,light rain
668,Cap Malheureux,MU,-19.9842,57.6142,77.47,86,100,8.99,light rain
669,Forio,IT,40.7342,13.8646,55.78,80,86,7.0,overcast clouds
670,Grand-Santi,GF,4.25,-54.3833,79.32,74,84,3.27,broken clouds
671,Bugene,TZ,-1.5911,31.1403,61.81,75,92,3.27,overcast clouds
672,Severomuysk,RU,56.1481,113.4267,-37.71,97,97,6.69,overcast clouds
673,Gorom-Gorom,BF,14.4439,-0.2361,74.98,13,14,8.05,few clouds
674,Butte,US,39.6499,-121.5677,52.02,64,100,5.3,overcast clouds
675,Punta Alta,AR,-38.8759,-62.0736,82.54,50,58,13.13,broken clouds
676,Lodja,CD,-3.4833,23.4333,72.19,81,20,2.64,few clouds
677,Chkalovskoye,RU,44.8392,133.0436,11.21,87,100,6.71,overcast clouds
